"","site_no","station_nm","dec_lat_va","dec_long_va","huc_cd","startDate","endDate","yearsAvail","id","p_MAM7","tau_MAM7","p_Baseflow","tau_Baseflow","p_MeanQ","tau_MeanQ","p_Q10","tau_Q10","p_Q50","tau_Q50","p_Q90","tau_Q90","p_Q95","tau_Q95"
"3","04100500","ELKHART RIVER AT GOSHEN, IN",41.5933827,-85.8486057,"04050001",1958-10-01,2021-09-30,63,1,0.761353342342702,"-",0.0691085462353897,"+",0.0691085462353897,"+",0.160565343762264,"+",0.0251666610450659,"+",0.264343890137129,"+",0.650618217097226,"+"
"31","04101000","ST. JOSEPH RIVER AT ELKHART, IN",41.6917158,-85.9750004,"04050001",1958-10-01,2021-09-30,63,2,0.444047285207357,"+",0.0459022052283964,"+",0.130643556719745,"+",0.145842458179258,"+",0.119619486996157,"+",0.307496488556222,"+",0.425311075539356,"+"
"4","04101500","ST. JOSEPH RIVER AT NILES, MI",41.8292138,-86.2597325,"04050001",1958-10-01,2021-09-30,63,3,0.53154223450892,"+",0.000890866818676679,"+",0.00812477514458526,"+",0.0399932955089787,"+",0.0124088050875957,"+",0.0381884187038592,"+",0.0934652518277367,"+"
"5","04099510","PIGEON CREEK NR ANGOLA, IN",41.6344947,-85.109691,"04050001",1958-10-01,2021-09-30,63,4,0.00355051676648729,"+",0.0179711841811707,"+",0.00197947192582571,"+",0.00197220581779782,"+",0.00874326503580283,"+",0.00327847580399351,"+",0.0301143000210123,"+"
"8","04099000","ST. JOSEPH RIVER AT MOTTVILLE, MI",41.80088279,-85.7561047,"04050001",1958-10-01,2021-09-30,63,5,0.733744639042783,"+",0.00234799871838428,"+",0.0126394463565765,"+",0.16054832619909,"+",0.0399501543489361,"+",0.0185886627457604,"+",0.0251785196260524,"+"
"9","04097500","ST. JOSEPH RIVER AT THREE RIVERS, MI",41.94032575,-85.6327707,"04050001",1958-10-01,2021-09-30,63,6,0.411848966734304,"+",0.00380076577941567,"+",0.00380076577941567,"+",0.0609679052986845,"+",0.0308783527064131,"+",0.0260672866790958,"+",0.0412341190481967,"+"
"15","04102500","PAW PAW RIVER AT RIVERSIDE, MI",42.18642675,-86.3689124,"04050001",1958-10-01,2021-09-30,63,7,0.0437338940483449,"+",0.166355274885652,"+",0.0347642174434555,"+",0.0331420719757126,"+",0.0438272119486005,"+",0.170295625107241,"+",0.0277732339551013,"+"
"19","04103500","KALAMAZOO RIVER AT MARSHALL, MI",42.2647643,-84.96387,"04050003",1958-10-01,2021-09-30,63,8,0.000756547523111071,"+",4.67524608951221e-06,"+",0.000201857824601912,"+",0.000587063333044893,"+",0.000471969205263325,"+",0.00201831365617215,"+",0.00172365475661521,"+"
"20","04105000","BATTLE CREEK AT BATTLE CREEK, MI",42.33142969,-85.1536025,"04050003",1958-10-01,2021-09-30,63,9,0.00638232243419978,"+",0.0021565287582078,"+",0.000245116878759905,"+",0.00574520121147451,"+",0.00136332039405001,"+",0.000363392706325965,"+",0.000998043041955185,"+"
"21","04105500","KALAMAZOO RIVER NEAR BATTLE CREEK, MI",42.32392989,-85.1974929,"04050003",1958-10-01,2021-09-30,63,10,0.00224778629936511,"+",0.000586670324180345,"+",0.000890866818676679,"+",0.00444653041886501,"+",0.00444491540120299,"+",0.00189415062779129,"+",0.000451604856026049,"+"
"23","04106000","KALAMAZOO RIVER AT COMSTOCK, MI",42.28559716,-85.513893,"04050003",1958-10-01,2021-09-30,63,11,0.00134398943023422,"+",0.00044204901955528,"+",0.000213598649375752,"+",0.000579133094659918,"+",0.000592950685718448,"+",0.000232520827266177,"+",0.00039583936887227,"+"
"30","04109000","GRAND RIVER AT JACKSON, MI",42.28364676,-84.4088483,"04050004",1958-10-01,2021-09-30,63,12,0.0127575910586115,"+",0.000741048420463215,"+",0.0179711841811707,"+",0.0192280184961073,"+",0.0438186307929131,"+",0.00909207311171562,"+",0.0145719614874288,"+"
"311","04111000","GRAND RIVER NEAR EATON RAPIDS, MI",42.5347591,-84.62303529,"04050004",1958-10-01,2021-09-30,63,13,0.00011122604916059,"+",7.19273392703929e-06,"+",0.000206022041695982,"+",0.0022969503013166,"+",0.000297855189974564,"+",0.000332470723303597,"+",0.00920971219928659,"+"
"34","04112000","SLOAN CREEK NEAR WILLIAMSTON, MI",42.67586828,-84.3638605,"04050004",1958-10-01,2021-09-30,63,14,0.301692891360811,"+",0.00402181580733888,"+",0.0199150915131703,"+",0.168169625501725,"+",0.00500300463124286,"+",0.0425095033076269,"+",0.0861641617125097,"+"
"35","04112500","RED CEDAR RIVER AT EAST LANSING, MI",42.7272571,-84.4780317,"04050004",1958-10-01,2021-09-30,63,15,7.2906745172775e-05,"+",0.000363493200150437,"+",0.00234799871838428,"+",0.000507220857120302,"+",0.000250546806548925,"+",0.00609614131509514,"+",0.0353122863121448,"+"
"36","04113000","GRAND RIVER AT LANSING, MI",42.75059039,-84.555257,"04050004",1958-10-01,2021-09-30,63,16,0.000255518269376909,"+",2.35185222078241e-05,"+",0.000313925288510582,"+",0.00104426314708934,"+",0.000172237728712378,"+",0.00170102311396034,"+",0.0347642174434555,"+"
"37","04114498","LOOKING GLASS RIVER NEAR EAGLE, MI",42.82809018,-84.7594339,"04050004",1958-10-01,2021-09-30,63,17,6.37938144877846e-05,"+",3.35416740972415e-05,"+",0.000599623138761865,"+",2.32218693562756e-05,"+",1.78601373614044e-05,"+",0.0228692108059548,"+",0.263114430088079,"+"
"38","04114000","GRAND RIVER AT PORTLAND, MI",42.85642289,-84.9122182,"04050004",1958-10-01,2021-09-30,63,18,0.0011023107767102,"+",4.95367838624544e-05,"+",0.000224599822984346,"+",0.00108380980061407,"+",0.000588677461398025,"+",0.000606021540396127,"+",0.0170518157279498,"+"
"41","04115000","MAPLE RIVER AT MAPLE RAPIDS, MI",43.10975485,-84.6930521,"04050005",1958-10-01,2021-09-30,63,19,0.00491568915543615,"+",0.00173878672182942,"+",0.0126394463565765,"+",0.00471675624052473,"+",0.00193610709763516,"+",0.0772687758690409,"+",0.425301659851503,"+"
"43","04116000","GRAND RIVER AT IONIA, MI",42.971977,-85.0691725,"04050006",1958-10-01,2021-09-30,63,20,6.75945569765749e-05,"+",4.85000069119619e-05,"+",0.00127809391192803,"+",0.00109245707145971,"+",0.000440226234567359,"+",0.0185998366485941,"+",0.213611480479436,"+"
"44","04118500","ROGUE RIVER NEAR ROCKFORD, MI",43.0822491,-85.5908648,"04050006",1958-10-01,2021-09-30,63,21,0.0394516908494645,"+",0.0024542713326323,"+",0.002985374252852,"+",0.00788884739401659,"+",0.000899076135807205,"+",0.0409387226995864,"+",0.117188485860078,"+"
"45","04119000","GRAND RIVER AT GRAND RAPIDS, MI",42.963082,-85.6772533,"04050006",1958-10-01,2021-09-30,63,22,0.00064087821909996,"+",0.000172237728712378,"+",0.000284476000163562,"+",0.000451362662798949,"+",0.00010244045107308,"+",0.00418584043796168,"+",0.0607722303950994,"+"
"46","04117500","THORNAPPLE RIVER NEAR HASTINGS, MI",42.6158688,-85.2363933,"04050007",1958-10-01,2021-09-30,63,23,0.0012579812424693,"+",0.00314721656347367,"+",0.00189604039458122,"+",0.00189415062779129,"+",0.00301722220036086,"+",0.00997382852009848,"+",0.0458889547768237,"+"
