,site_no,station_nm,dec_lat_va,dec_long_va,huc_cd,startDate,endDate,yearsAvail,id,p_MAM7,tau_MAM7,p_Baseflow,tau_Baseflow,p_MeanQ,tau_MeanQ,p_Q10,tau_Q10,p_Q50,tau_Q50,p_Q90,tau_Q90,p_Q95,tau_Q95
3,4100500,"ELKHART RIVER AT GOSHEN, IN",41.5933827,-85.8486057,4050001,1962-10-01,2021-09-30,59,1,0.631821654305865,-,0.046811235464341,+,0.099362772819117,+,0.155870135887657,+,0.043297243871582,+,0.289398423661007,+,0.694744086917778,+
31,4101000,"ST. JOSEPH RIVER AT ELKHART, IN",41.6917158,-85.9750004,4050001,1962-10-01,2021-09-30,59,2,0.640681817296382,+,0.079673685242837,+,0.173762422917404,+,0.13591046172676,+,0.155834751899651,+,0.436441911389111,+,0.521607313682943,+
4,4101500,"ST. JOSEPH RIVER AT NILES, MI",41.8292138,-86.2597325,4050001,1962-10-01,2021-09-30,59,3,0.614201384423487,+,0.002988413964995,+,0.016690650698509,+,0.05209446563971,+,0.022464116242654,+,0.06709212280243,+,0.139428092776723,+
5,4099510,"PIGEON CREEK NR ANGOLA, IN",41.6344947,-85.109691,4050001,1962-10-01,2021-09-30,59,4,0.00510447195101,+,0.038783371763669,+,0.003538564570801,+,0.002457049002512,+,0.017890905505096,+,0.004353561481656,+,0.026624391786386,+
7,4097540,"PRAIRIE RIVER NEAR NOTTAWA, MI",41.88838304,-85.409428,4050001,1962-10-01,2021-09-30,59,5,0.482904520616048,+,0.02779133367425,+,0.072218183268626,+,0.038091180533078,+,0.042034795571871,+,0.209647793259305,+,0.42083328580586,+
8,4099000,"ST. JOSEPH RIVER AT MOTTVILLE, MI",41.80088279,-85.7561047,4050001,1962-10-01,2021-09-30,59,6,0.995034864467221,+,0.005558607363851,+,0.024475390622546,+,0.202209512592943,+,0.062279765023887,+,0.037547141519121,+,0.046811235464341,+
9,4097500,"ST. JOSEPH RIVER AT THREE RIVERS, MI",41.94032575,-85.6327707,4050001,1962-10-01,2021-09-30,59,7,0.661944511779589,+,0.008138013188719,+,0.007732570239216,+,0.083169110414302,+,0.046406688892082,+,0.054559698912248,+,0.077195141057777,+
10,4096405,"ST. JOSEPH RIVER AT BURLINGTON, MI",42.1031014,-85.0799764,4050001,1962-10-01,2021-09-30,59,8,0.878340403101814,+,0.088413145837671,+,0.107416059651569,+,0.767857948159433,+,0.151062397594882,+,0.085920414145414,+,0.097537712278877,+
14,4101800,"DOWAGIAC RIVER AT SUMNERVILLE, MI",41.9133797,-86.2130676,4050001,1962-10-01,2021-09-30,59,9,0.260009204590719,+,0.008902001706799,+,0.012486656258581,+,0.025733930382621,+,0.002626086928778,+,0.0774526480235,+,0.048276644505029,+
15,4102500,"PAW PAW RIVER AT RIVERSIDE, MI",42.18642675,-86.3689124,4050001,1962-10-01,2021-09-30,59,10,0.140250362184327,+,0.218913028571499,+,0.06709212280243,+,0.055340575657038,+,0.083051551411181,+,0.271927806664354,+,0.057889680468055,+
17,4108800,"MACATAWA RIVER AT STATE ROAD NEAR ZEELAND, MI",42.77919167,-86.0183722,4050002,1962-10-01,2021-09-30,59,11,0.537796781150971,+,0.000148896583656,+,0.007054326378484,+,0.016079119495586,+,0.001685959437751,+,0.001481624669862,+,0.03756210867258,+
19,4103500,"KALAMAZOO RIVER AT MARSHALL, MI",42.2647643,-84.96387,4050003,1962-10-01,2021-09-30,59,12,0.001464325642723,+,8.52133364039679E-06,+,0.000451331183454,+,0.000957629196132,+,0.001041268075816,+,0.004305554387415,+,0.00398867926296,+
20,4105000,"BATTLE CREEK AT BATTLE CREEK, MI",42.33142969,-85.1536025,4050003,1962-10-01,2021-09-30,59,13,0.019286225677391,+,0.002988413964995,+,0.000641077273136,+,0.009239850805505,+,0.002254146713252,+,0.000980817807943,+,0.002684864825059,+
21,4105500,"KALAMAZOO RIVER NEAR BATTLE CREEK, MI",42.32392989,-85.1974929,4050003,1962-10-01,2021-09-30,59,14,0.003806500153196,+,0.000582208154144,+,0.002115218677376,+,0.007192732351242,+,0.008563981444702,+,0.004723040897497,+,0.001153260476528,+
23,4106000,"KALAMAZOO RIVER AT COMSTOCK, MI",42.28559716,-85.513893,4050003,1962-10-01,2021-09-30,59,15,0.00321540899301,+,0.001028629705646,+,0.00053692188764,+,0.001268232479335,+,0.001366894151731,+,0.000650598006991,+,0.001083724321393,+
25,4106400,"WEST FORK PORTAGE CREEK AT KALAMAZOO, MI",42.2444854,-85.6144495,4050003,1962-10-01,2021-09-30,59,16,0.048529505423298,-,0.54741857550168,-,0.73381636342019,-,0.153864063117991,-,0.91658382368933,-,0.44329851398974,+,0.366195778511494,+
30,4109000,"GRAND RIVER AT JACKSON, MI",42.28364676,-84.4088483,4050004,1962-10-01,2021-09-30,59,17,0.016860392556581,+,0.000893556375824,+,0.033017302517925,+,0.026161493842618,+,0.072061272545329,+,0.016690650698509,+,0.026180706491212,+
311,4111000,"GRAND RIVER NEAR EATON RAPIDS, MI",42.5347591,-84.62303529,4050004,1962-10-01,2021-09-30,59,18,0.000266016549422,+,3.81583870152007E-05,+,0.000478901307712,+,0.003902683510226,+,0.000533976207633,+,0.000880552018473,+,0.019880230787867,+
34,4112000,"SLOAN CREEK NEAR WILLIAMSTON, MI",42.67586828,-84.3638605,4050004,1962-10-01,2021-09-30,59,19,0.422037888242421,+,0.026187111772643,+,0.041318463357228,+,0.171546985186027,+,0.007043762364517,+,0.087806063484964,+,0.161594296643933,+
35,4112500,"RED CEDAR RIVER AT EAST LANSING, MI",42.7272571,-84.4780317,4050004,1962-10-01,2021-09-30,59,20,0.000437964081155,+,0.001353684042082,+,0.005786090819122,+,0.0007730865756,+,0.00038271258913,+,0.014716524426453,+,0.074209721444933,+
36,4113000,"GRAND RIVER AT LANSING, MI",42.75059039,-84.555257,4050004,1962-10-01,2021-09-30,59,21,0.000832460363248,+,0.000108222518402,+,0.000813331687221,+,0.001416489604435,+,0.000306436804438,+,0.004265663003009,+,0.06709212280243,+
37,4114498,"LOOKING GLASS RIVER NEAR EAGLE, MI",42.82809018,-84.7594339,4050004,1962-10-01,2021-09-30,59,22,0.000218181870303,+,0.000361261212862,+,0.001617907657042,+,4.041147836507E-05,+,3.67203198566247E-05,+,0.049544792062646,+,0.429479654306502,+
38,4114000,"GRAND RIVER AT PORTLAND, MI",42.85642289,-84.9122182,4050004,1962-10-01,2021-09-30,59,23,0.003931250040845,+,0.000121562176884,+,0.000633534209702,+,0.002143250489961,+,0.001027107035723,+,0.001640335429165,+,0.036515943898806,+
41,4115000,"MAPLE RIVER AT MAPLE RAPIDS, MI",43.10975485,-84.6930521,4050005,1962-10-01,2021-09-30,59,24,0.007876021246315,+,0.004179380608071,+,0.026187111772643,+,0.005227666836674,+,0.003182906980745,+,0.132543679758928,+,0.628433844773667,+
43,4116000,"GRAND RIVER AT IONIA, MI",42.971977,-85.0691725,4050006,1962-10-01,2021-09-30,59,25,0.000578986533079,+,0.000148896583656,+,0.003118104982031,+,0.002068864087622,+,0.00089204068492,+,0.040033897997493,+,0.35991440073046,+
44,4118500,"ROGUE RIVER NEAR ROCKFORD, MI",43.0822491,-85.5908648,4050006,1962-10-01,2021-09-30,59,26,0.085242878248989,+,0.003646841960904,+,0.005113324408834,+,0.008113080205516,+,0.001205765079575,+,0.071448674710147,+,0.200191078141724,+
45,4119000,"GRAND RIVER AT GRAND RAPIDS, MI",42.963082,-85.6772533,4050006,1962-10-01,2021-09-30,59,27,0.003117159793422,+,0.000322257566767,+,0.000775775208475,+,0.000872170904668,+,0.000249583230671,+,0.009975767151144,+,0.118059448547001,+
46,4117500,"THORNAPPLE RIVER NEAR HASTINGS, MI",42.6158688,-85.2363933,4050007,1962-10-01,2021-09-30,59,28,0.007452773546281,+,0.004923764172544,+,0.004727198866971,+,0.004006347409359,+,0.006515185544166,+,0.022469874320533,+,0.091546461811426,+
